%time,field.linear.x,field.linear.y,field.linear.z,field.angular.x,field.angular.y,field.angular.z
1553969390537222635,36.0,0.0,11.0,1.0,38.0,47.0
1553969390586401135,34.0,0.0,11.0,1.0,33.0,36.0
1553969390639828835,35.0,0.0,9.0,1.0,35.0,31.0
1553969390690309749,34.0,0.0,11.0,0.0,36.0,67.0
1553969390741999454,35.0,0.0,11.0,1.0,35.0,30.0
1553969390795157473,35.0,0.0,11.0,0.0,36.0,70.0
1553969390844417826,35.0,0.0,11.0,0.0,35.0,29.0
1553969390897612730,35.0,0.0,11.0,1.0,36.0,46.0
1553969390947210117,34.0,0.0,11.0,0.0,33.0,36.0
1553969391001915039,36.0,0.0,11.0,0.0,36.0,29.0
1553969391049282924,36.0,0.0,9.0,0.0,35.0,67.0
1553969391102428167,34.0,0.0,11.0,0.0,35.0,30.0
1553969391151693045,35.0,0.0,11.0,0.0,36.0,72.0
1553969391204893811,35.0,0.0,11.0,0.0,35.0,29.0
1553969391258080839,36.0,0.0,10.0,0.0,36.0,46.0
1553969391307432379,35.0,0.0,11.0,0.0,35.0,36.0
1553969391360731608,35.0,0.0,11.0,1.0,36.0,31.0
1553969391409738973,35.0,0.0,11.0,1.0,35.0,68.0
1553969391462928151,35.0,0.0,10.0,1.0,35.0,30.0
1553969391512188867,35.0,0.0,11.0,0.0,35.0,72.0
1553969391565348985,35.0,0.0,11.0,0.0,35.0,29.0
1553969391614561166,35.0,0.0,13.0,1.0,35.0,46.0
1553969391668049063,34.0,0.0,10.0,0.0,35.0,35.0
1553969391720936944,35.0,0.0,11.0,1.0,35.0,31.0
1553969391770558394,34.0,0.0,11.0,0.0,36.0,68.0
1553969391823337257,35.0,0.0,11.0,1.0,33.0,30.0
1553969391872608032,37.0,0.0,11.0,0.0,35.0,71.0
1553969391925776272,34.0,0.0,11.0,0.0,35.0,30.0
1553969391975037929,35.0,0.0,11.0,1.0,35.0,45.0
1553969392028367547,34.0,0.0,11.0,2.0,34.0,37.0
1553969392077439857,35.0,0.0,11.0,1.0,35.0,31.0
1553969392130652354,34.0,0.0,11.0,0.0,35.0,68.0
1553969392184300318,35.0,0.0,11.0,1.0,33.0,30.0
1553969392233026214,36.0,0.0,11.0,0.0,35.0,70.0
1553969392286269903,33.0,0.0,11.0,0.0,35.0,29.0
1553969392336281430,36.0,0.0,11.0,1.0,35.0,44.0
1553969392388635240,35.0,0.0,12.0,2.0,34.0,38.0
1553969392437928001,35.0,0.0,10.0,1.0,35.0,31.0
1553969392491109062,34.0,0.0,10.0,0.0,35.0,73.0
1553969392544448842,33.0,0.0,11.0,1.0,35.0,30.0
1553969392593529179,35.0,0.0,12.0,1.0,35.0,64.0
1553969392646732529,34.0,0.0,12.0,0.0,34.0,31.0
1553969392696059124,35.0,0.0,10.0,1.0,35.0,34.0
1553969392749526772,34.0,0.0,11.0,0.0,36.0,53.0
1553969392798384032,35.0,0.0,12.0,1.0,35.0,30.0
1553969392851712838,36.0,0.0,11.0,0.0,35.0,71.0
1553969392904727183,35.0,0.0,11.0,1.0,35.0,29.0
1553969392953956896,35.0,0.0,11.0,0.0,36.0,63.0
1553969393007337187,34.0,0.0,13.0,0.0,34.0,31.0
1553969393056411018,35.0,0.0,9.0,1.0,35.0,34.0
1553969393110985150,34.0,0.0,11.0,1.0,35.0,53.0
1553969393160177564,35.0,0.0,11.0,3.0,35.0,31.0
1553969393212019305,35.0,0.0,12.0,0.0,35.0,73.0
1553969393261350999,35.0,0.0,11.0,1.0,35.0,29.0
1553969393314429599,35.0,0.0,11.0,0.0,37.0,62.0
1553969393367628871,34.0,0.0,11.0,1.0,34.0,29.0
1553969393416872413,35.0,0.0,11.0,1.0,35.0,33.0
1553969393470060954,35.0,0.0,11.0,0.0,35.0,54.0
1553969393519291277,35.0,0.0,12.0,1.0,36.0,31.0
1553969393572559723,35.0,0.0,11.0,0.0,35.0,73.0
1553969393622418930,35.0,0.0,11.0,1.0,35.0,29.0
1553969393674894777,36.0,0.0,11.0,1.0,38.0,62.0
1553969393724265980,34.0,0.0,11.0,1.0,33.0,30.0
1553969393777582897,35.0,0.0,11.0,0.0,35.0,33.0
1553969393830480544,35.0,0.0,11.0,0.0,35.0,55.0
1553969393879718088,34.0,0.0,11.0,1.0,35.0,31.0
1553969393932982506,35.0,0.0,12.0,0.0,35.0,73.0
1553969393982121110,35.0,0.0,12.0,1.0,34.0,29.0
1553969394035311312,35.0,0.0,11.0,1.0,35.0,62.0
1553969394084559368,34.0,0.0,11.0,1.0,34.0,31.0
1553969394137881799,34.0,0.0,11.0,2.0,34.0,33.0
1553969394186989368,34.0,0.0,11.0,1.0,34.0,56.0
1553969394240196064,33.0,0.0,11.0,1.0,34.0,31.0
1553969394293338243,34.0,0.0,11.0,1.0,35.0,73.0
1553969394342580910,35.0,0.0,11.0,2.0,34.0,29.0
1553969394395755705,35.0,0.0,12.0,1.0,36.0,61.0
1553969394445155159,34.0,0.0,11.0,1.0,36.0,31.0
1553969394498348187,35.0,0.0,12.0,2.0,35.0,34.0
1553969394547405711,33.0,0.0,12.0,1.0,32.0,56.0
1553969394600592463,35.0,0.0,12.0,2.0,35.0,31.0
1553969394649848636,34.0,0.0,11.0,2.0,35.0,75.0
1553969394703021315,35.0,0.0,12.0,2.0,33.0,30.0
1553969394756161961,36.0,0.0,12.0,2.0,35.0,61.0
1553969394805685120,42.0,0.0,12.0,2.0,41.0,32.0
1553969394858603700,40.0,0.0,12.0,3.0,41.0,33.0
1553969394907950126,40.0,0.0,12.0,4.0,40.0,58.0
1553969394961201323,49.0,0.0,11.0,4.0,49.0,32.0
1553969395010282998,57.0,0.0,12.0,4.0,55.0,75.0
1553969395063470761,56.0,0.0,13.0,3.0,58.0,32.0
1553969395116650810,53.0,0.0,18.0,3.0,52.0,51.0
1553969395165927767,97.0,0.0,33.0,6.0,97.0,38.0
1553969395219116836,164.0,0.0,50.0,12.0,163.0,37.0
1553969395268470801,143.0,0.0,31.0,7.0,146.0,71.0
1553969395321496011,187.0,0.0,68.0,16.0,187.0,38.0
1553969395370753004,189.0,0.0,59.0,23.0,190.0,83.0
1553969395423953456,238.0,0.0,51.0,19.0,237.0,40.0
1553969395477450312,198.0,0.0,55.0,12.0,196.0,56.0
1553969395526361403,176.0,0.0,49.0,9.0,176.0,43.0
1553969395579698821,208.0,0.0,38.0,8.0,212.0,36.0
1553969395629469109,206.0,0.0,51.0,9.0,202.0,71.0
1553969395681968333,296.0,0.0,98.0,32.0,296.0,46.0
1553969395731199726,266.0,0.0,76.0,27.0,265.0,87.0
1553969395784398536,220.0,0.0,74.0,17.0,219.0,41.0
1553969395833632892,224.0,0.0,99.0,21.0,224.0,61.0
1553969395887268613,227.0,0.0,72.0,16.0,226.0,47.0
1553969395940003075,266.0,0.0,63.0,17.0,265.0,42.0
1553969395989966697,253.0,0.0,87.0,11.0,252.0,77.0
1553969396042397976,298.0,0.0,80.0,21.0,295.0,43.0
1553969396091655370,285.0,0.0,85.0,29.0,288.0,88.0
1553969396144896239,299.0,0.0,65.0,17.0,298.0,41.0
1553969396194200689,389.0,0.0,136.0,41.0,392.0,70.0
1553969396247252975,404.0,0.0,77.0,28.0,405.0,54.0
1553969396296495721,521.0,0.0,96.0,49.0,519.0,57.0
1553969396349938860,528.0,0.0,95.0,28.0,524.0,88.0
1553969396402870031,434.0,0.0,106.0,52.0,433.0,59.0
1553969396452086393,473.0,0.0,201.0,80.0,469.0,111.0
1553969396506150758,587.0,0.0,111.0,50.0,592.0,64.0
1553969396554518727,532.0,0.0,74.0,32.0,527.0,72.0
1553969396607702668,473.0,0.0,97.0,43.0,477.0,67.0
1553969396656989292,483.0,0.0,98.0,35.0,480.0,58.0
1553969396710133049,468.0,0.0,83.0,36.0,469.0,91.0
1553969396759531711,374.0,0.0,65.0,36.0,375.0,58.0
1553969396812551086,452.0,0.0,103.0,35.0,453.0,92.0
1553969396862096229,468.0,0.0,110.0,51.0,478.0,61.0
1553969396915195404,608.0,0.0,58.0,56.0,605.0,80.0
1553969396968195480,623.0,0.0,73.0,48.0,621.0,71.0
1553969397017380481,724.0,0.0,64.0,40.0,720.0,63.0
1553969397070709292,586.0,0.0,69.0,55.0,584.0,102.0
1553969397119813442,561.0,0.0,104.0,43.0,557.0,63.0
1553969397172984743,574.0,0.0,80.0,68.0,576.0,109.0
1553969397222246950,516.0,0.0,81.0,49.0,514.0,65.0
1553969397275603796,540.0,0.0,50.0,47.0,542.0,78.0
1553969397324670804,497.0,0.0,64.0,39.0,495.0,69.0
1553969397377834104,516.0,0.0,53.0,42.0,517.0,63.0
1553969397431172867,468.0,0.0,66.0,40.0,472.0,94.0
1553969397480315142,415.0,0.0,70.0,38.0,411.0,60.0
1553969397533460148,415.0,0.0,66.0,43.0,414.0,95.0
1553969397586811326,401.0,0.0,79.0,41.0,406.0,63.0
1553969397636067398,383.0,0.0,96.0,58.0,384.0,72.0
1553969397689083093,394.0,0.0,107.0,51.0,392.0,88.0
1553969397738310131,459.0,0.0,95.0,62.0,461.0,73.0
1553969397791499252,519.0,0.0,85.0,52.0,524.0,107.0
1553969397841351299,524.0,0.0,66.0,46.0,523.0,65.0
1553969397894053705,389.0,0.0,62.0,49.0,393.0,97.0
1553969397943560204,422.0,0.0,61.0,42.0,421.0,65.0
1553969397996339710,617.0,0.0,125.0,75.0,618.0,82.0
1553969398049514304,737.0,0.0,91.0,53.0,736.0,91.0
1553969398098714369,631.0,0.0,119.0,87.0,625.0,86.0
1553969398151948303,566.0,0.0,86.0,56.0,562.0,113.0
1553969398201246314,483.0,0.0,64.0,52.0,479.0,69.0
1553969398254585023,508.0,0.0,94.0,49.0,504.0,100.0
1553969398303586256,574.0,0.0,117.0,51.0,574.0,71.0
1553969398356799918,451.0,0.0,61.0,46.0,450.0,72.0
1553969398406025750,442.0,0.0,139.0,60.0,442.0,94.0
1553969398459181691,581.0,0.0,99.0,65.0,579.0,76.0
1553969398512397178,478.0,0.0,89.0,48.0,475.0,108.0
1553969398562156551,639.0,0.0,68.0,40.0,636.0,64.0
1553969398614838793,661.0,0.0,94.0,52.0,659.0,98.0
1553969398664093529,617.0,0.0,71.0,37.0,617.0,64.0
1553969398717245486,521.0,0.0,52.0,38.0,521.0,65.0
1553969398766467305,406.0,0.0,66.0,35.0,403.0,80.0
1553969398819636396,521.0,0.0,61.0,32.0,521.0,59.0
1553969398868929859,456.0,0.0,43.0,32.0,455.0,96.0
1553969398922106263,461.0,0.0,52.0,31.0,462.0,57.0
1553969398971321421,431.0,0.0,65.0,33.0,433.0,87.0
1553969399024510246,399.0,0.0,55.0,32.0,404.0,58.0
1553969399077689084,413.0,0.0,57.0,33.0,409.0,60.0
1553969399126908664,467.0,0.0,105.0,43.0,469.0,82.0
1553969399180113639,535.0,0.0,100.0,41.0,536.0,61.0
1553969399229352991,589.0,0.0,74.0,37.0,595.0,97.0
1553969399282683886,420.0,0.0,65.0,43.0,418.0,61.0
1553969399331767018,459.0,0.0,78.0,36.0,461.0,88.0
1553969399385091416,552.0,0.0,87.0,49.0,556.0,64.0
1553969399434208383,544.0,0.0,92.0,61.0,539.0,72.0
1553969399487364839,600.0,0.0,102.0,47.0,597.0,87.0
1553969399540542862,549.0,0.0,72.0,61.0,550.0,73.0
1553969399589812757,443.0,0.0,149.0,83.0,440.0,120.0
1553969399643053378,591.0,0.0,103.0,60.0,592.0,74.0
1553969399692483523,552.0,0.0,157.0,62.0,552.0,105.0
1553969399745415341,481.0,0.0,95.0,59.0,480.0,75.0
1553969399794638169,508.0,0.0,114.0,50.0,510.0,73.0
1553969399847957728,439.0,0.0,72.0,40.0,445.0,85.0
1553969399897057461,463.0,0.0,82.0,47.0,467.0,69.0
1553969399950402935,494.0,0.0,74.0,37.0,495.0,101.0
1553969400003526615,456.0,0.0,70.0,37.0,452.0,62.0
1553969400052684349,519.0,0.0,116.0,38.0,514.0,85.0
1553969400105899040,461.0,0.0,82.0,55.0,462.0,71.0
1553969400159501895,522.0,0.0,123.0,54.0,525.0,70.0
1553969400208319439,478.0,0.0,116.0,47.0,475.0,97.0
1553969400261488843,460.0,0.0,60.0,51.0,456.0,69.0
1553969400310895175,458.0,0.0,102.0,55.0,456.0,107.0
1553969400363900569,459.0,0.0,95.0,51.0,456.0,68.0
1553969400413204377,493.0,0.0,83.0,72.0,490.0,96.0
1553969400466583212,475.0,0.0,83.0,49.0,473.0,73.0
1553969400515583017,477.0,0.0,90.0,48.0,474.0,69.0
1553969400568825149,464.0,0.0,92.0,70.0,466.0,107.0
1553969400618017887,420.0,0.0,102.0,57.0,422.0,75.0
1553969400671382912,547.0,0.0,96.0,63.0,550.0,113.0
1553969400724368941,599.0,0.0,91.0,57.0,596.0,74.0
1553969400773611384,463.0,0.0,123.0,47.0,460.0,88.0
1553969400826798725,448.0,0.0,82.0,44.0,450.0,69.0
1553969400876502661,588.0,0.0,111.0,45.0,585.0,67.0
1553969400929205947,585.0,0.0,52.0,37.0,585.0,94.0
1553969400978553451,621.0,0.0,130.0,60.0,623.0,73.0
1553969401032979856,564.0,0.0,117.0,47.0,564.0,105.0
1553969401080884591,495.0,0.0,99.0,56.0,501.0,70.0
1553969401134052411,549.0,0.0,115.0,53.0,550.0,90.0
1553969401187262152,621.0,0.0,75.0,39.0,634.0,68.0
1553969401236718515,588.0,0.0,95.0,39.0,587.0,65.0
1553969401289697521,485.0,0.0,85.0,39.0,486.0,94.0
1553969401338914242,384.0,0.0,83.0,41.0,381.0,64.0
1553969401392095182,418.0,0.0,90.0,40.0,427.0,100.0
1553969401441365300,520.0,0.0,85.0,40.0,518.0,62.0
1553969401494487600,492.0,0.0,67.0,50.0,495.0,86.0
1553969401543791347,582.0,0.0,86.0,48.0,578.0,68.0
1553969401597036683,581.0,0.0,79.0,51.0,596.0,68.0
1553969401650192314,669.0,0.0,70.0,43.0,665.0,96.0
1553969401699326693,618.0,0.0,66.0,45.0,615.0,66.0
1553969401752512201,615.0,0.0,59.0,42.0,614.0,101.0
1553969401801887498,487.0,0.0,66.0,37.0,489.0,61.0
1553969401855217171,475.0,0.0,87.0,51.0,482.0,86.0
1553969401904196038,514.0,0.0,99.0,45.0,515.0,68.0
1553969401957480652,516.0,0.0,57.0,39.0,513.0,62.0
1553969402006949301,463.0,0.0,83.0,48.0,461.0,96.0
1553969402059917076,697.0,0.0,116.0,56.0,700.0,71.0
1553969402113080016,546.0,0.0,60.0,37.0,548.0,100.0
1553969402162196596,514.0,0.0,72.0,45.0,514.0,65.0
1553969402215368696,440.0,0.0,109.0,40.0,444.0,83.0
1553969402264637643,468.0,0.0,79.0,60.0,471.0,74.0
1553969402317815526,475.0,0.0,101.0,72.0,472.0,77.0
1553969402367088032,507.0,0.0,70.0,50.0,510.0,100.0
1553969402420420385,463.0,0.0,56.0,48.0,466.0,70.0
1553969402469497456,449.0,0.0,60.0,34.0,447.0,99.0
1553969402522769036,427.0,0.0,84.0,49.0,426.0,66.0
1553969402575870425,379.0,0.0,49.0,52.0,383.0,81.0
1553969402625198830,311.0,0.0,48.0,43.0,308.0,77.0
1553969402678314301,446.0,0.0,151.0,56.0,450.0,72.0
1553969402727543191,372.0,0.0,74.0,39.0,370.0,101.0
1553969402780727206,389.0,0.0,94.0,42.0,388.0,64.0
1553969402834053392,435.0,0.0,88.0,37.0,432.0,97.0
1553969402883206942,416.0,0.0,69.0,45.0,416.0,64.0
1553969402936297635,393.0,0.0,156.0,76.0,393.0,86.0
1553969402985565842,443.0,0.0,130.0,69.0,448.0,89.0
1553969403038851278,496.0,0.0,135.0,63.0,493.0,76.0
1553969403087979014,396.0,0.0,112.0,70.0,392.0,114.0
1553969403141197046,324.0,0.0,99.0,48.0,323.0,71.0
1553969403190384003,284.0,0.0,95.0,40.0,288.0,102.0
1553969403243561846,359.0,0.0,90.0,46.0,358.0,65.0
1553969403296844087,364.0,0.0,90.0,37.0,363.0,73.0
1553969403346178777,463.0,0.0,91.0,42.0,461.0,75.0
1553969403399174055,380.0,0.0,96.0,51.0,380.0,70.0
1553969403448456308,411.0,0.0,102.0,36.0,413.0,97.0
1553969403501581293,392.0,0.0,90.0,29.0,389.0,58.0
1553969403550830399,350.0,0.0,96.0,26.0,350.0,91.0
1553969403604028912,450.0,0.0,132.0,30.0,447.0,57.0
1553969403655139630,400.0,0.0,85.0,25.0,405.0,62.0
1553969403706442622,434.0,0.0,96.0,27.0,434.0,64.0
1553969403759617922,300.0,0.0,122.0,29.0,298.0,56.0
1553969403808826452,269.0,0.0,123.0,37.0,267.0,93.0
1553969403862025666,268.0,0.0,124.0,56.0,267.0,66.0
1553969403911331354,399.0,0.0,136.0,61.0,396.0,106.0
1553969403964601900,334.0,0.0,83.0,51.0,332.0,68.0
1553969404013823008,253.0,0.0,119.0,44.0,251.0,73.0
1553969404066910323,216.0,0.0,120.0,43.0,214.0,75.0
1553969404116238159,324.0,0.0,98.0,58.0,323.0,73.0
1553969404169341224,365.0,0.0,114.0,63.0,363.0,109.0
1553969404222787752,411.0,0.0,152.0,60.0,411.0,73.0
1553969404271852176,440.0,0.0,86.0,57.0,439.0,107.0
1553969404325029230,367.0,0.0,149.0,63.0,370.0,76.0
1553969404374205575,514.0,0.0,109.0,55.0,519.0,82.0
1553969404427472663,531.0,0.0,237.0,88.0,530.0,96.0
1553969404476579788,569.0,0.0,241.0,91.0,569.0,92.0
1553969404529741203,585.0,0.0,206.0,76.0,581.0,122.0
1553969404579130451,555.0,0.0,121.0,54.0,564.0,76.0
1553969404632196462,707.0,0.0,232.0,85.0,701.0,123.0
1553969404685348738,594.0,0.0,250.0,79.0,603.0,87.0
1553969404734627080,583.0,0.0,136.0,66.0,589.0,92.0
1553969404787821660,785.0,0.0,146.0,80.0,810.0,97.0
1553969404837060908,710.0,0.0,162.0,58.0,709.0,81.0
1553969404890185803,569.0,0.0,162.0,96.0,566.0,129.0
1553969404939568884,525.0,0.0,227.0,71.0,527.0,86.0
1553969404992716034,595.0,0.0,131.0,71.0,594.0,120.0
1553969405041992462,582.0,0.0,171.0,93.0,583.0,95.0
1553969405095073272,621.0,0.0,200.0,88.0,621.0,97.0
1553969405148263440,563.0,0.0,114.0,79.0,563.0,113.0
1553969405197513489,610.0,0.0,150.0,58.0,614.0,83.0
1553969405250769792,483.0,0.0,112.0,44.0,479.0,111.0
1553969405299922251,518.0,0.0,150.0,45.0,528.0,72.0
1553969405353753691,512.0,0.0,162.0,44.0,507.0,98.0
1553969405406280559,554.0,0.0,183.0,61.0,562.0,78.0
1553969405455531984,450.0,0.0,145.0,43.0,449.0,70.0
1553969405508893163,553.0,0.0,119.0,67.0,550.0,100.0
1553969405557957356,579.0,0.0,126.0,61.0,578.0,78.0
1553969405611295864,439.0,0.0,112.0,46.0,439.0,108.0
1553969405660403692,459.0,0.0,77.0,44.0,457.0,65.0
