%time,field.linear.x,field.linear.y,field.linear.z,field.angular.x,field.angular.y,field.angular.z
1553973953138972361,85.0,109.0,12.0,0.0,0.0,0.0
1553973953187411598,87.0,98.0,11.0,0.0,0.0,0.0
1553973953240592339,85.0,106.0,9.0,0.0,0.0,0.0
1553973953289997352,85.0,96.0,11.0,0.0,0.0,0.0
1553973953342785445,88.0,98.0,12.0,0.0,0.0,0.0
1553973953392265827,86.0,105.0,11.0,0.0,0.0,0.0
1553973953445492221,89.0,99.0,12.0,0.0,0.0,0.0
1553973953494689613,84.0,109.0,12.0,0.0,0.0,0.0
1553973953547850834,87.0,97.0,11.0,0.0,0.0,0.0
1553973953601049831,88.0,106.0,11.0,0.0,0.0,0.0
1553973953650264429,85.0,96.0,11.0,0.0,0.0,0.0
1553973953703508145,87.0,98.0,11.0,0.0,0.0,0.0
1553973953752662437,86.0,105.0,11.0,0.0,0.0,0.0
1553973953805880626,89.0,100.0,14.0,0.0,0.0,0.0
1553973953855127687,85.0,109.0,10.0,0.0,0.0,0.0
1553973953908304130,90.0,97.0,9.0,0.0,0.0,0.0
1553973953957537035,87.0,104.0,11.0,0.0,0.0,0.0
1553973954010795621,85.0,97.0,11.0,0.0,0.0,0.0
1553973954064173139,88.0,98.0,12.0,0.0,0.0,0.0
1553973954113126736,86.0,105.0,11.0,0.0,0.0,0.0
1553973954166379649,89.0,98.0,12.0,0.0,0.0,0.0
1553973954215723519,84.0,108.0,11.0,0.0,0.0,0.0
1553973954268725518,86.0,96.0,11.0,0.0,0.0,0.0
1553973954317966253,86.0,104.0,12.0,0.0,0.0,0.0
1553973954371201834,84.0,96.0,11.0,0.0,0.0,0.0
1553973954420382492,88.0,98.0,14.0,0.0,0.0,0.0
1553973954473586338,85.0,106.0,10.0,0.0,0.0,0.0
1553973954526786712,88.0,98.0,11.0,0.0,0.0,0.0
1553973954575960981,84.0,108.0,11.0,0.0,0.0,0.0
1553973954629236065,88.0,97.0,11.0,0.0,0.0,0.0
1553973954678417151,88.0,105.0,11.0,0.0,0.0,0.0
1553973954731631912,86.0,98.0,11.0,0.0,0.0,0.0
1553973954780848024,88.0,99.0,12.0,0.0,0.0,0.0
1553973954834019686,86.0,107.0,11.0,0.0,0.0,0.0
1553973954883514579,88.0,97.0,11.0,0.0,0.0,0.0
1553973954936489931,85.0,107.0,11.0,0.0,0.0,0.0
1553973954985648162,86.0,95.0,11.0,0.0,0.0,0.0
1553973955039032974,87.0,104.0,11.0,0.0,0.0,0.0
1553973955092092766,85.0,96.0,11.0,0.0,0.0,0.0
1553973955141285059,88.0,98.0,12.0,0.0,0.0,0.0
1553973955194579947,86.0,105.0,11.0,0.0,0.0,0.0
1553973955243724532,87.0,99.0,11.0,0.0,0.0,0.0
1553973955296694186,86.0,109.0,11.0,0.0,0.0,0.0
1553973955346125499,87.0,98.0,14.0,0.0,0.0,0.0
1553973955399498278,88.0,105.0,11.0,0.0,0.0,0.0
1553973955452195060,84.0,99.0,12.0,0.0,0.0,0.0
1553973955501450042,88.0,98.0,11.0,0.0,0.0,0.0
1553973955554656270,85.0,108.0,11.0,0.0,0.0,0.0
1553973955603986749,88.0,97.0,11.0,0.0,0.0,0.0
1553973955657072559,87.0,109.0,11.0,0.0,0.0,0.0
1553973955706407407,87.0,97.0,11.0,0.0,0.0,0.0
1553973955759474947,91.0,101.0,9.0,0.0,0.0,0.0
1553973955812811628,85.0,100.0,11.0,0.0,0.0,0.0
1553973955862257277,89.0,99.0,11.0,0.0,0.0,0.0
1553973955915046737,86.0,108.0,11.0,0.0,0.0,0.0
1553973955964513446,89.0,98.0,11.0,0.0,0.0,0.0
1553973956017708323,87.0,108.0,12.0,0.0,0.0,0.0
1553973956066728383,86.0,98.0,11.0,0.0,0.0,0.0
1553973956120050358,88.0,101.0,11.0,0.0,0.0,0.0
1553973956169442799,83.0,101.0,11.0,0.0,0.0,0.0
1553973956222627276,89.0,99.0,11.0,0.0,0.0,0.0
1553973956275499704,85.0,108.0,11.0,0.0,0.0,0.0
1553973956324848553,88.0,97.0,11.0,0.0,0.0,0.0
1553973956377910476,87.0,108.0,10.0,0.0,0.0,0.0
1553973956427330039,87.0,97.0,11.0,0.0,0.0,0.0
1553973956480377390,89.0,101.0,11.0,0.0,0.0,0.0
1553973956529654728,86.0,103.0,11.0,0.0,0.0,0.0
1553973956582855865,90.0,100.0,12.0,0.0,0.0,0.0
1553973956632304819,86.0,109.0,11.0,0.0,0.0,0.0
1553973956685484617,89.0,98.0,11.0,0.0,0.0,0.0
1553973956738618335,85.0,107.0,11.0,0.0,0.0,0.0
1553973956787937695,87.0,97.0,11.0,0.0,0.0,0.0
1553973956841099213,90.0,101.0,11.0,0.0,0.0,0.0
1553973956890393052,85.0,103.0,11.0,0.0,0.0,0.0
1553973956943554886,90.0,100.0,11.0,0.0,0.0,0.0
1553973956992668270,88.0,109.0,11.0,0.0,0.0,0.0
1553973957045573191,89.0,98.0,11.0,0.0,0.0,0.0
1553973957094844069,87.0,107.0,11.0,0.0,0.0,0.0
1553973957148008628,86.0,98.0,11.0,0.0,0.0,0.0
1553973957197240982,89.0,100.0,11.0,0.0,0.0,0.0
1553973957250695954,88.0,104.0,9.0,0.0,0.0,0.0
1553973957303634646,90.0,100.0,12.0,0.0,0.0,0.0
1553973957353175152,85.0,107.0,11.0,0.0,0.0,0.0
1553973957406059822,89.0,98.0,11.0,0.0,0.0,0.0
1553973957455309314,86.0,107.0,11.0,0.0,0.0,0.0
1553973957508743328,85.0,97.0,12.0,0.0,0.0,0.0
1553973957557698329,90.0,99.0,11.0,0.0,0.0,0.0
1553973957610897668,85.0,104.0,11.0,0.0,0.0,0.0
1553973957660193190,89.0,99.0,11.0,0.0,0.0,0.0
1553973957713592611,84.0,109.0,11.0,0.0,0.0,0.0
1553973957766502855,88.0,97.0,11.0,0.0,0.0,0.0
1553973957815784731,86.0,107.0,13.0,0.0,0.0,0.0
1553973957868921233,86.0,97.0,11.0,0.0,0.0,0.0
1553973957918453685,89.0,99.0,9.0,0.0,0.0,0.0
1553973957971777192,87.0,106.0,9.0,0.0,0.0,0.0
1553973958024813885,89.0,99.0,11.0,0.0,0.0,0.0
1553973958074148242,86.0,109.0,11.0,0.0,0.0,0.0
1553973958127036848,87.0,97.0,12.0,0.0,0.0,0.0
1553973958176384193,89.0,104.0,18.0,0.0,0.0,0.0
1553973958229405729,90.0,102.0,39.0,0.0,0.0,0.0
1553973958278668343,92.0,102.0,51.0,6.0,0.0,0.0
1553973958331824968,91.0,111.0,70.0,12.0,0.0,0.0
1553973958381073452,90.0,101.0,92.0,6.0,0.0,0.0
1553973958434321516,90.0,111.0,92.0,10.0,0.0,0.0
1553973958487398889,94.0,101.0,107.0,6.0,0.0,0.0
1553973958536907786,101.0,113.0,152.0,6.0,0.0,0.0
1553973958589903625,98.0,108.0,101.0,8.0,0.0,0.0
1553973958639357764,96.0,105.0,83.0,14.0,0.0,0.0
1553973958692278018,94.0,113.0,79.0,16.0,0.0,0.0
1553973958741589105,100.0,104.0,77.0,16.0,0.0,0.0
1553973958794690710,89.0,112.0,55.0,10.0,0.0,0.0
1553973958843941578,93.0,103.0,77.0,9.0,0.0,0.0
1553973958897163137,95.0,109.0,98.0,6.0,0.0,0.0
1553973958946369949,93.0,105.0,70.0,21.0,0.0,0.0
1553973958999554638,89.0,101.0,64.0,13.0,0.0,0.0
1553973959052717584,84.0,108.0,63.0,10.0,0.0,0.0
1553973959101961530,82.0,94.0,45.0,12.0,0.0,0.0
1553973959155128191,86.0,107.0,53.0,11.0,0.0,0.0
1553973959204394481,86.0,98.0,78.0,9.0,0.0,0.0
1553973959257552915,89.0,102.0,70.0,18.0,0.0,0.0
1553973959306821468,86.0,103.0,100.0,19.0,0.0,0.0
1553973959359976964,89.0,100.0,88.0,28.0,0.0,0.0
1553973959409247788,97.0,113.0,57.0,23.0,0.0,0.0
1553973959462417987,98.0,105.0,62.0,22.0,0.0,0.0
1553973959515825575,93.0,115.0,62.0,25.0,0.0,0.0
1553973959564836811,92.0,101.0,55.0,22.0,0.0,0.0
1553973959618007132,96.0,108.0,66.0,11.0,0.0,0.0
1553973959667315434,89.0,104.0,54.0,5.0,0.0,0.0
1553973959720433996,100.0,107.0,43.0,14.0,0.0,0.0
1553973959769679582,94.0,116.0,75.0,4.0,0.0,0.0
1553973959822860108,95.0,103.0,72.0,4.0,0.0,0.0
1553973959872151259,92.0,112.0,51.0,4.0,0.0,0.0
1553973959925284881,98.0,105.0,53.0,6.0,0.0,0.0
1553973959978451573,95.0,105.0,48.0,1.0,0.0,0.0
1553973960027694892,91.0,106.0,50.0,8.0,0.0,0.0
1553973960080889677,98.0,106.0,57.0,8.0,0.0,0.0
1553973960130142876,93.0,115.0,57.0,15.0,0.0,0.0
1553973960183682398,94.0,102.0,48.0,15.0,0.0,0.0
1553973960232521326,97.0,116.0,64.0,11.0,0.0,0.0
1553973960285748015,101.0,108.0,46.0,25.0,0.0,0.0
1553973960334989875,109.0,115.0,55.0,23.0,0.0,0.0
1553973960388150226,100.0,116.0,64.0,16.0,0.0,0.0
1553973960437392631,108.0,114.0,50.0,25.0,0.0,0.0
1553973960490558254,107.0,127.0,67.0,9.0,0.0,0.0
1553973960544012458,107.0,115.0,70.0,16.0,0.0,0.0
1553973960593043747,106.0,120.0,58.0,12.0,0.0,0.0
1553973960646210582,96.0,108.0,66.0,9.0,0.0,0.0
1553973960699365238,98.0,107.0,42.0,10.0,0.0,0.0
1553973960748628910,96.0,115.0,47.0,22.0,0.0,0.0
1553973960801797594,102.0,110.0,72.0,21.0,0.0,0.0
1553973960851241680,102.0,121.0,48.0,27.0,0.0,0.0
1553973960904239366,103.0,110.0,85.0,18.0,0.0,0.0
1553973960953467939,100.0,114.0,50.0,23.0,0.0,0.0
1553973961006638878,100.0,110.0,53.0,22.0,0.0,0.0
1553973961055884480,97.0,107.0,68.0,15.0,0.0,0.0
1553973961109063730,98.0,117.0,50.0,10.0,0.0,0.0
1553973961158299794,101.0,108.0,51.0,2.0,0.0,0.0
1553973961211522015,101.0,120.0,56.0,4.0,0.0,0.0
1553973961264768517,102.0,108.0,40.0,0.0,0.0,0.0
1553973961313915494,98.0,113.0,47.0,1.0,0.0,0.0
1553973961367373143,96.0,108.0,42.0,0.0,0.0,0.0
1553973961416308021,111.0,114.0,41.0,15.0,0.0,0.0
1553973961469516493,104.0,123.0,52.0,2.0,0.0,0.0
1553973961518832630,108.0,114.0,49.0,16.0,0.0,0.0
1553973961571938100,106.0,125.0,62.0,23.0,0.0,0.0
1553973961621223541,115.0,119.0,85.0,24.0,0.0,0.0
1553973961674341446,99.0,116.0,72.0,37.0,0.0,0.0
1553973961727543065,104.0,113.0,80.0,29.0,0.0,0.0
1553973961776815386,104.0,115.0,117.0,32.0,0.0,0.0
1553973961829957755,112.0,127.0,74.0,17.0,0.0,0.0
1553973961879218714,112.0,115.0,68.0,15.0,0.0,0.0
1553973961932381069,125.0,137.0,65.0,18.0,0.0,0.0
1553973961981691503,114.0,122.0,84.0,12.0,0.0,0.0
1553973962034943261,106.0,120.0,56.0,5.0,0.0,0.0
1553973962084050779,110.0,119.0,71.0,10.0,0.0,0.0
1553973962137206756,120.0,124.0,83.0,16.0,0.0,0.0
1553973962190437404,103.0,124.0,65.0,13.0,0.0,0.0
1553973962239620222,114.0,120.0,69.0,7.0,0.0,0.0
1553973962292916111,102.0,124.0,68.0,8.0,0.0,0.0
1553973962342096373,95.0,107.0,53.0,9.0,0.0,0.0
1553973962395343817,106.0,118.0,72.0,5.0,0.0,0.0
1553973962444708498,101.0,113.0,81.0,6.0,0.0,0.0
1553973962498217178,119.0,123.0,70.0,5.0,0.0,0.0
1553973962547130390,101.0,123.0,66.0,0.0,0.0,0.0
1553973962600446757,109.0,115.0,67.0,0.0,0.0,0.0
1553973962649542684,104.0,123.0,58.0,4.0,0.0,0.0
1553973962702584027,107.0,114.0,61.0,1.0,0.0,0.0
1553973962755985646,105.0,117.0,54.0,1.0,0.0,0.0
1553973962805143898,103.0,114.0,42.0,0.0,0.0,0.0
1553973962858478250,98.0,109.0,39.0,0.0,0.0,0.0
1553973962907432655,93.0,116.0,47.0,0.0,0.0,0.0
1553973962960990086,99.0,107.0,40.0,0.0,0.0,0.0
1553973963014133600,99.0,117.0,37.0,0.0,0.0,0.0
1553973963064539839,102.0,110.0,42.0,0.0,0.0,0.0
1553973963116675363,104.0,112.0,39.0,0.0,0.0,0.0
1553973963165356841,104.0,120.0,46.0,0.0,0.0,0.0
1553973963218566701,101.0,111.0,48.0,0.0,0.0,0.0
1553973963267801666,94.0,117.0,40.0,0.0,0.0,0.0
1553973963320971682,91.0,102.0,37.0,1.0,0.0,0.0
1553973963370253597,92.0,112.0,49.0,0.0,0.0,0.0
1553973963423488143,86.0,100.0,43.0,2.0,0.0,0.0
1553973963476615596,101.0,107.0,39.0,0.0,0.0,0.0
1553973963525917827,95.0,113.0,43.0,0.0,0.0,0.0
1553973963579040977,96.0,105.0,41.0,0.0,0.0,0.0
1553973963628240788,98.0,118.0,38.0,0.0,0.0,0.0
1553973963681725134,100.0,107.0,40.0,0.0,0.0,0.0
1553973963730821341,101.0,116.0,33.0,0.0,0.0,0.0
1553973963784102255,94.0,105.0,31.0,0.0,0.0,0.0
1553973963833412669,96.0,106.0,37.0,0.0,0.0,0.0
1553973963886311681,93.0,113.0,53.0,0.0,0.0,0.0
1553973963939467967,93.0,104.0,62.0,0.0,0.0,0.0
1553973963988707295,92.0,114.0,62.0,2.0,0.0,0.0
1553973964041883757,96.0,104.0,68.0,9.0,0.0,0.0
1553973964091159386,96.0,114.0,101.0,10.0,0.0,0.0
1553973964144323785,99.0,107.0,55.0,15.0,0.0,0.0
1553973964193573873,100.0,109.0,82.0,8.0,0.0,0.0
1553973964247078496,103.0,120.0,66.0,5.0,0.0,0.0
1553973964296251212,101.0,110.0,51.0,4.0,0.0,0.0
1553973964349287784,100.0,120.0,55.0,1.0,0.0,0.0
1553973964402324214,92.0,104.0,67.0,5.0,0.0,0.0
1553973964451579956,96.0,112.0,58.0,9.0,0.0,0.0
1553973964504880910,100.0,109.0,63.0,1.0,0.0,0.0
1553973964553994684,98.0,106.0,37.0,0.0,0.0,0.0
1553973964607175952,96.0,115.0,39.0,0.0,0.0,0.0
1553973964656417500,100.0,108.0,39.0,0.0,0.0,0.0
1553973964709596948,117.0,131.0,46.0,0.0,0.0,0.0
1553973964758859758,105.0,113.0,52.0,1.0,0.0,0.0
1553973964812016187,98.0,114.0,37.0,5.0,0.0,0.0
1553973964861272994,94.0,106.0,33.0,0.0,0.0,0.0
1553973964914580227,98.0,108.0,39.0,0.0,0.0,0.0
1553973964967621432,100.0,117.0,31.0,0.0,0.0,0.0
1553973965016864273,98.0,108.0,41.0,1.0,0.0,0.0
1553973965070040581,102.0,121.0,35.0,0.0,0.0,0.0
1553973965119432054,97.0,106.0,36.0,0.0,0.0,0.0
1553973965172466394,97.0,112.0,36.0,0.0,0.0,0.0
1553973965221712549,90.0,104.0,34.0,0.0,0.0,0.0
1553973965274892185,101.0,109.0,53.0,0.0,0.0,0.0
1553973965324156807,94.0,113.0,52.0,0.0,0.0,0.0
1553973965377309281,115.0,117.0,40.0,0.0,0.0,0.0
1553973965430476962,107.0,126.0,47.0,0.0,0.0,0.0
1553973965479918633,104.0,112.0,36.0,0.0,0.0,0.0
1553973965532945279,103.0,115.0,40.0,0.0,0.0,0.0
1553973965582199323,96.0,112.0,34.0,0.0,0.0,0.0
1553973965635498209,101.0,111.0,37.0,0.0,0.0,0.0
1553973965688544883,97.0,120.0,51.0,0.0,0.0,0.0
1553973965737782291,103.0,111.0,61.0,0.0,0.0,0.0
1553973965791037702,99.0,119.0,42.0,4.0,0.0,0.0
1553973965840290329,92.0,104.0,44.0,0.0,0.0,0.0
1553973965893384349,97.0,108.0,32.0,0.0,0.0,0.0
1553973965942646526,101.0,114.0,23.0,0.0,0.0,0.0
1553973965995811379,103.0,111.0,33.0,0.0,0.0,0.0
1553973966045056983,96.0,119.0,42.0,0.0,0.0,0.0
1553973966098241556,101.0,108.0,40.0,0.0,0.0,0.0
1553973966151397077,100.0,119.0,51.0,2.0,0.0,0.0
1553973966200696856,100.0,108.0,49.0,7.0,0.0,0.0
1553973966253834716,119.0,120.0,41.0,21.0,0.0,0.0
1553973966303075302,137.0,139.0,53.0,15.0,0.0,0.0
1553973966356257188,125.0,130.0,46.0,7.0,0.0,0.0
1553973966405515596,103.0,129.0,42.0,3.0,0.0,0.0
1553973966458694520,113.0,119.0,54.0,0.0,0.0,0.0
1553973966507930279,110.0,128.0,43.0,0.0,0.0,0.0
1553973966561393954,100.0,111.0,45.0,0.0,0.0,0.0
1553973966610399247,99.0,111.0,38.0,0.0,0.0,0.0
1553973966663529837,120.0,128.0,40.0,0.0,0.0,0.0
1553973966716709596,124.0,127.0,45.0,0.0,0.0,0.0
1553973966765949098,108.0,129.0,37.0,0.0,0.0,0.0
1553973966819148427,107.0,114.0,41.0,0.0,0.0,0.0
1553973966868402613,113.0,128.0,46.0,0.0,0.0,0.0
1553973966921556293,103.0,113.0,41.0,4.0,0.0,0.0
1553973966970796660,104.0,114.0,37.0,3.0,0.0,0.0
1553973967023984490,106.0,122.0,66.0,14.0,0.0,0.0
1553973967073421117,105.0,113.0,49.0,6.0,0.0,0.0
1553973967126405937,102.0,123.0,51.0,2.0,0.0,0.0
1553973967179592381,98.0,105.0,40.0,0.0,0.0,0.0
1553973967228835197,96.0,115.0,29.0,0.0,0.0,0.0
1553973967282048681,95.0,106.0,44.0,0.0,0.0,0.0
1553973967331929365,105.0,112.0,33.0,0.0,0.0,0.0
1553973967384458315,100.0,116.0,28.0,0.0,0.0,0.0
1553973967433762644,104.0,110.0,31.0,0.0,0.0,0.0
1553973967486891252,94.0,118.0,36.0,0.0,0.0,0.0
1553973967536426267,92.0,103.0,34.0,0.0,0.0,0.0
1553973967589572449,91.0,110.0,44.0,0.0,0.0,0.0
1553973967642436269,97.0,105.0,41.0,0.0,0.0,0.0
1553973967691710370,96.0,104.0,29.0,0.0,0.0,0.0
1553973967744865726,98.0,114.0,31.0,0.0,0.0,0.0
1553973967794164814,97.0,107.0,27.0,0.0,0.0,0.0
1553973967847370846,95.0,117.0,26.0,0.0,0.0,0.0
1553973967896573619,102.0,109.0,27.0,0.0,0.0,0.0
1553973967949770649,99.0,116.0,20.0,0.0,0.0,0.0
1553973967999023759,103.0,112.0,23.0,0.0,0.0,0.0
1553973968052177567,96.0,106.0,25.0,0.0,0.0,0.0
1553973968105341749,100.0,119.0,23.0,0.0,0.0,0.0
1553973968154590943,94.0,104.0,24.0,0.0,0.0,0.0
1553973968207786108,90.0,113.0,24.0,0.0,0.0,0.0
1553973968257017857,95.0,103.0,24.0,0.0,0.0,0.0
1553973968310176913,105.0,114.0,29.0,0.0,0.0,0.0
