%time,field.linear.x,field.linear.y,field.linear.z,field.angular.x,field.angular.y,field.angular.z
1553973975921029475,90.0,110.0,9.0,0.0,0.0,0.0
1553973975974208456,89.0,99.0,11.0,0.0,0.0,0.0
1553973976027694525,91.0,103.0,11.0,0.0,0.0,0.0
1553973976076613404,88.0,102.0,11.0,0.0,0.0,0.0
1553973976129765441,92.0,102.0,11.0,0.0,0.0,0.0
1553973976179209691,88.0,112.0,12.0,0.0,0.0,0.0
1553973976232215327,92.0,101.0,10.0,0.0,0.0,0.0
1553973976281442208,91.0,112.0,11.0,0.0,0.0,0.0
1553973976334627072,91.0,101.0,11.0,0.0,0.0,0.0
1553973976383871837,92.0,105.0,11.0,0.0,0.0,0.0
1553973976437381376,88.0,103.0,11.0,0.0,0.0,0.0
1553973976490541109,92.0,103.0,11.0,0.0,0.0,0.0
1553973976539413350,89.0,111.0,10.0,0.0,0.0,0.0
1553973976592638184,94.0,100.0,11.0,0.0,0.0,0.0
1553973976641814311,88.0,109.0,11.0,0.0,0.0,0.0
1553973976695080469,89.0,99.0,11.0,0.0,0.0,0.0
1553973976744298481,92.0,105.0,12.0,0.0,0.0,0.0
1553973976797475607,87.0,103.0,11.0,0.0,0.0,0.0
1553973976846734807,94.0,102.0,11.0,0.0,0.0,0.0
1553973976899916202,88.0,111.0,11.0,0.0,0.0,0.0
1553973976949195085,91.0,100.0,11.0,0.0,0.0,0.0
1553973977002730665,89.0,110.0,11.0,0.0,0.0,0.0
1553973977055447745,89.0,99.0,11.0,0.0,0.0,0.0
1553973977104762310,91.0,103.0,11.0,0.0,0.0,0.0
1553973977157950398,86.0,102.0,10.0,0.0,0.0,0.0
1553973977207204691,91.0,101.0,11.0,0.0,0.0,0.0
1553973977260436878,87.0,110.0,11.0,0.0,0.0,0.0
1553973977309954319,91.0,100.0,11.0,0.0,0.0,0.0
1553973977363136823,89.0,110.0,11.0,0.0,0.0,0.0
1553973977412042019,86.0,98.0,11.0,0.0,0.0,0.0
1553973977465151604,91.0,102.0,9.0,0.0,0.0,0.0
1553973977518606148,88.0,103.0,11.0,0.0,0.0,0.0
1553973977567702643,92.0,101.0,11.0,0.0,0.0,0.0
1553973977620758602,87.0,110.0,11.0,0.0,0.0,0.0
1553973977670046380,89.0,98.0,11.0,0.0,0.0,0.0
1553973977723210613,88.0,109.0,11.0,0.0,0.0,0.0
1553973977772431885,90.0,97.0,9.0,0.0,0.0,0.0
1553973977825583437,91.0,103.0,12.0,0.0,0.0,0.0
1553973977874866045,85.0,102.0,11.0,0.0,0.0,0.0
1553973977928404347,91.0,101.0,11.0,0.0,0.0,0.0
1553973977981191979,89.0,111.0,11.0,0.0,0.0,0.0
1553973978030459111,91.0,99.0,14.0,0.0,0.0,0.0
1553973978083715477,88.0,109.0,11.0,0.0,0.0,0.0
1553973978133243509,86.0,97.0,11.0,0.0,0.0,0.0
1553973978186169288,89.0,99.0,12.0,0.0,0.0,0.0
1553973978241088640,88.0,108.0,11.0,0.0,0.0,0.0
1553973978288922597,91.0,100.0,11.0,0.0,0.0,0.0
1553973978341705596,88.0,111.0,11.0,0.0,0.0,0.0
1553973978390969401,91.0,99.0,10.0,0.0,0.0,0.0
1553973978444164186,89.0,107.0,11.0,0.0,0.0,0.0
1553973978493396824,85.0,99.0,11.0,0.0,0.0,0.0
1553973978546579076,91.0,100.0,11.0,0.0,0.0,0.0
1553973978595780006,88.0,109.0,11.0,0.0,0.0,0.0
1553973978649002035,92.0,101.0,12.0,0.0,0.0,0.0
1553973978698199141,88.0,111.0,10.0,0.0,0.0,0.0
1553973978751764950,89.0,100.0,11.0,0.0,0.0,0.0
1553973978804927346,90.0,107.0,11.0,0.0,0.0,0.0
1553973978853814841,88.0,100.0,11.0,0.0,0.0,0.0
1553973978907739752,91.0,101.0,11.0,0.0,0.0,0.0
1553973978956247592,91.0,109.0,11.0,0.0,0.0,0.0
1553973979009395874,93.0,100.0,9.0,0.0,0.0,0.0
1553973979058715472,89.0,111.0,11.0,0.0,0.0,0.0
1553973979111820450,91.0,99.0,11.0,0.0,0.0,0.0
1553973979161129149,91.0,107.0,11.0,0.0,0.0,0.0
1553973979214353121,88.0,100.0,11.0,0.0,0.0,0.0
1553973979267424823,91.0,100.0,11.0,0.0,0.0,0.0
1553973979316676650,89.0,110.0,9.0,0.0,0.0,0.0
1553973979369884798,94.0,103.0,11.0,0.0,0.0,0.0
1553973979419099162,90.0,103.0,11.0,0.0,0.0,0.0
1553973979472259066,95.0,104.0,11.0,0.0,0.0,0.0
1553973979521495416,100.0,109.0,12.0,0.0,0.0,0.0
1553973979574680929,101.0,112.0,11.0,0.0,0.0,0.0
1553973979623944779,110.0,115.0,11.0,0.0,0.0,0.0
1553973979677181898,109.0,122.0,11.0,0.0,0.0,0.0
1553973979730277508,113.0,121.0,11.0,0.0,0.0,0.0
1553973979779517521,108.0,121.0,12.0,0.0,0.0,0.0
1553973979832697588,110.0,120.0,14.0,0.0,0.0,0.0
1553973979881946745,111.0,120.0,11.0,0.0,0.0,0.0
1553973979935141721,108.0,117.0,11.0,0.0,0.0,0.0
1553973979984364051,108.0,116.0,11.0,0.0,0.0,0.0
1553973980037896571,103.0,121.0,11.0,0.0,0.0,0.0
1553973980086786193,104.0,114.0,12.0,0.0,0.0,0.0
1553973980140033301,95.0,119.0,11.0,0.0,0.0,0.0
1553973980189308988,93.0,104.0,9.0,0.0,0.0,0.0
1553973980242438089,92.0,110.0,11.0,0.0,0.0,0.0
1553973980295593577,89.0,102.0,12.0,0.0,0.0,0.0
1553973980344846801,90.0,101.0,13.0,0.0,0.0,0.0
1553973980398216881,88.0,111.0,17.0,0.0,0.0,0.0
1553973980447261345,91.0,101.0,17.0,0.0,0.0,0.0
1553973980500450751,88.0,111.0,16.0,0.0,0.0,0.0
1553973980549684347,90.0,99.0,14.0,0.0,0.0,0.0
1553973980602958457,90.0,105.0,14.0,0.0,0.0,0.0
1553973980655990869,86.0,100.0,17.0,0.0,0.0,0.0
1553973980705272703,89.0,100.0,16.0,0.0,0.0,0.0
1553973980758458767,86.0,109.0,13.0,0.0,0.0,0.0
1553973980807689332,91.0,98.0,16.0,0.0,0.0,0.0
1553973980861127031,89.0,108.0,17.0,0.0,0.0,0.0
1553973980910135349,88.0,98.0,25.0,0.0,0.0,0.0
1553973980963323641,92.0,103.0,19.0,0.0,0.0,0.0
1553973981016469491,86.0,102.0,15.0,0.0,0.0,0.0
1553973981065750940,91.0,101.0,14.0,0.0,0.0,0.0
1553973981118963549,87.0,110.0,12.0,0.0,0.0,0.0
1553973981168450204,92.0,100.0,11.0,0.0,0.0,0.0
1553973981221362922,90.0,111.0,12.0,0.0,0.0,0.0
1553973981270595039,90.0,97.0,12.0,0.0,0.0,0.0
1553973981323776617,92.0,104.0,12.0,0.0,0.0,0.0
1553973981373012509,93.0,108.0,20.0,0.0,0.0,0.0
1553973981426204944,95.0,106.0,28.0,0.0,0.0,0.0
1553973981479373484,94.0,116.0,25.0,0.0,0.0,0.0
1553973981528622458,93.0,102.0,40.0,3.0,0.0,0.0
1553973981581797454,94.0,114.0,60.0,0.0,0.0,0.0
1553973981631058648,102.0,109.0,80.0,0.0,0.0,0.0
1553973981684222442,98.0,109.0,87.0,21.0,0.0,0.0
1553973981733469871,94.0,110.0,114.0,19.0,0.0,0.0
1553973981786643423,94.0,104.0,76.0,21.0,0.0,0.0
1553973981835882145,93.0,115.0,105.0,30.0,0.0,0.0
1553973981889059312,106.0,109.0,85.0,24.0,0.0,0.0
1553973981942243071,107.0,122.0,70.0,16.0,0.0,0.0
1553973981991482202,96.0,107.0,81.0,18.0,0.0,0.0
1553973982044684012,92.0,105.0,96.0,36.0,0.0,0.0
1553973982093915759,90.0,106.0,69.0,42.0,0.0,0.0
1553973982147083627,99.0,106.0,61.0,29.0,0.0,0.0
1553973982196339175,97.0,120.0,97.0,17.0,0.0,0.0
1553973982249526336,96.0,103.0,53.0,18.0,0.0,0.0
1553973982298781054,108.0,122.0,71.0,6.0,0.0,0.0
1553973982351953586,95.0,106.0,68.0,6.0,0.0,0.0
1553973982401203971,103.0,110.0,49.0,7.0,0.0,0.0
1553973982454361064,107.0,119.0,75.0,14.0,0.0,0.0
1553973982507540182,101.0,111.0,92.0,9.0,0.0,0.0
1553973982556830764,106.0,125.0,82.0,16.0,0.0,0.0
1553973982609969016,105.0,112.0,73.0,8.0,0.0,0.0
1553973982659278978,94.0,116.0,88.0,24.0,0.0,0.0
1553973982712401620,97.0,105.0,62.0,35.0,0.0,0.0
1553973982761644351,104.0,112.0,91.0,25.0,0.0,0.0
1553973982815194332,101.0,116.0,66.0,14.0,0.0,0.0
1553973982864068489,107.0,114.0,67.0,20.0,0.0,0.0
1553973982917249347,103.0,126.0,118.0,28.0,0.0,0.0
1553973982970445187,108.0,114.0,113.0,19.0,0.0,0.0
1553973983019628820,100.0,118.0,66.0,23.0,0.0,0.0
1553973983072789398,99.0,108.0,55.0,22.0,0.0,0.0
1553973983122183645,97.0,108.0,70.0,32.0,0.0,0.0
1553973983175310886,94.0,113.0,47.0,29.0,0.0,0.0
1553973983228648465,105.0,111.0,61.0,14.0,0.0,0.0
1553973983277702867,103.0,122.0,65.0,11.0,0.0,0.0
1553973983330880259,98.0,106.0,49.0,26.0,0.0,0.0
1553973983380226454,97.0,114.0,61.0,18.0,0.0,0.0
1553973983433307303,104.0,113.0,81.0,22.0,0.0,0.0
1553973983482663009,101.0,110.0,68.0,29.0,0.0,0.0
1553973983535717620,92.0,116.0,116.0,21.0,0.0,0.0
1553973983585115547,100.0,109.0,98.0,17.0,0.0,0.0
1553973983638175095,94.0,115.0,68.0,19.0,0.0,0.0
1553973983691331771,99.0,107.0,56.0,18.0,0.0,0.0
1553973983740835483,110.0,120.0,66.0,14.0,0.0,0.0
1553973983793955497,104.0,113.0,56.0,27.0,0.0,0.0
1553973983842985097,101.0,110.0,57.0,13.0,0.0,0.0
1553973983896365016,103.0,123.0,94.0,9.0,0.0,0.0
1553973983945634746,106.0,112.0,79.0,13.0,0.0,0.0
1553973983998657636,103.0,123.0,93.0,8.0,0.0,0.0
1553973984047874697,97.0,106.0,69.0,5.0,0.0,0.0
1553973984100998369,98.0,113.0,62.0,0.0,0.0,0.0
1553973984154187765,113.0,116.0,62.0,8.0,0.0,0.0
1553973984203441769,113.0,118.0,89.0,3.0,0.0,0.0
1553973984256599509,111.0,128.0,94.0,9.0,0.0,0.0
1553973984305851860,112.0,119.0,126.0,9.0,0.0,0.0
1553973984359045825,100.0,121.0,76.0,17.0,0.0,0.0
1553973984408315753,100.0,110.0,128.0,3.0,0.0,0.0
1553973984461444644,104.0,114.0,91.0,5.0,0.0,0.0
1553973984510777517,107.0,115.0,75.0,4.0,0.0,0.0
1553973984563910052,115.0,119.0,75.0,0.0,0.0,0.0
1553973984613897148,122.0,135.0,83.0,3.0,0.0,0.0
1553973984666335761,110.0,119.0,103.0,0.0,0.0,0.0
1553973984719509038,102.0,123.0,61.0,1.0,0.0,0.0
1553973984768731132,98.0,107.0,50.0,0.0,0.0,0.0
1553973984821933704,97.0,111.0,40.0,0.0,0.0,0.0
1553973984871528544,97.0,109.0,55.0,1.0,0.0,0.0
1553973984924665881,101.0,110.0,65.0,6.0,0.0,0.0
1553973984973959718,100.0,120.0,53.0,2.0,0.0,0.0
1553973985027152684,101.0,110.0,73.0,3.0,0.0,0.0
1553973985076001096,105.0,122.0,55.0,0.0,0.0,0.0
1553973985129219010,116.0,119.0,57.0,5.0,0.0,0.0
1553973985182387357,106.0,118.0,42.0,12.0,0.0,0.0
1553973985231687098,95.0,110.0,59.0,8.0,0.0,0.0
1553973985284765665,97.0,109.0,42.0,12.0,0.0,0.0
1553973985334045075,100.0,118.0,38.0,15.0,0.0,0.0
1553973985387206475,112.0,117.0,83.0,10.0,0.0,0.0
1553973985436464363,99.0,119.0,50.0,25.0,0.0,0.0
1553973985489627068,104.0,111.0,65.0,18.0,0.0,0.0
1553973985538875067,99.0,114.0,72.0,14.0,0.0,0.0
1553973985592058262,99.0,109.0,47.0,23.0,0.0,0.0
1553973985645386352,109.0,114.0,65.0,19.0,0.0,0.0
1553973985694519453,111.0,130.0,95.0,39.0,0.0,0.0
1553973985747727668,115.0,119.0,93.0,40.0,0.0,0.0
1553973985797350951,105.0,124.0,120.0,45.0,0.0,0.0
1553973985850149201,152.0,144.0,131.0,55.0,0.0,0.0
1553973985903304820,130.0,136.0,112.0,73.0,0.0,0.0
1553973985952553057,110.0,129.0,132.0,58.0,0.0,0.0
1553973986005726680,107.0,117.0,123.0,33.0,0.0,0.0
1553973986054973514,128.0,139.0,94.0,30.0,0.0,0.0
1553973986108270957,115.0,121.0,84.0,16.0,0.0,0.0
1553973986157517812,99.0,120.0,70.0,17.0,0.0,0.0
1553973986210748970,94.0,108.0,73.0,34.0,0.0,0.0
1553973986259820277,105.0,114.0,117.0,26.0,0.0,0.0
1553973986312976243,109.0,123.0,103.0,32.0,0.0,0.0
1553973986366181758,114.0,118.0,68.0,24.0,0.0,0.0
1553973986415398329,114.0,132.0,90.0,9.0,0.0,0.0
1553973986468608497,115.0,120.0,70.0,17.0,0.0,0.0
1553973986517823582,105.0,123.0,61.0,32.0,0.0,0.0
1553973986571054323,98.0,110.0,67.0,6.0,0.0,0.0
1553973986620233335,104.0,112.0,54.0,8.0,0.0,0.0
1553973986673445596,100.0,117.0,48.0,14.0,0.0,0.0
1553973986722682764,122.0,124.0,60.0,11.0,0.0,0.0
1553973986775867197,126.0,140.0,37.0,6.0,0.0,0.0
1553973986825376174,116.0,121.0,40.0,17.0,0.0,0.0
1553973986878683063,108.0,125.0,46.0,8.0,0.0,0.0
1553973986931931262,111.0,119.0,50.0,10.0,0.0,0.0
1553973986980952327,115.0,121.0,53.0,17.0,0.0,0.0
1553973987033860177,109.0,126.0,62.0,16.0,0.0,0.0
1553973987083099556,99.0,112.0,57.0,17.0,0.0,0.0
1553973987136294898,90.0,114.0,39.0,13.0,0.0,0.0
1553973987185531612,105.0,112.0,70.0,16.0,0.0,0.0
1553973987238713463,111.0,123.0,37.0,22.0,0.0,0.0
1553973987288566636,108.0,116.0,65.0,14.0,0.0,0.0
1553973987341241895,105.0,115.0,64.0,13.0,0.0,0.0
1553973987395171506,101.0,120.0,39.0,14.0,0.0,0.0
1553973987443530137,106.0,113.0,46.0,7.0,0.0,0.0
1553973987496744472,102.0,123.0,50.0,0.0,0.0,0.0
1553973987545998091,105.0,111.0,40.0,7.0,0.0,0.0
1553973987599198440,103.0,119.0,51.0,0.0,0.0,0.0
1553973987648400468,102.0,113.0,56.0,0.0,0.0,0.0
1553973987701603926,111.0,113.0,42.0,7.0,0.0,0.0
1553973987750849819,114.0,129.0,81.0,0.0,0.0,0.0
1553973987804027286,108.0,115.0,79.0,6.0,0.0,0.0
1553973987857247092,111.0,130.0,80.0,14.0,0.0,0.0
1553973987906437744,98.0,109.0,82.0,8.0,0.0,0.0
1553973987959602078,102.0,118.0,73.0,19.0,0.0,0.0
1553973988008903918,106.0,112.0,68.0,15.0,0.0,0.0
1553973988062038647,108.0,116.0,80.0,19.0,0.0,0.0
1553973988111275296,121.0,133.0,72.0,27.0,0.0,0.0
1553973988164563535,113.0,121.0,101.0,38.0,0.0,0.0
1553973988217658410,118.0,135.0,139.0,30.0,0.0,0.0
1553973988266929041,111.0,114.0,69.0,27.0,0.0,0.0
1553973988320111274,97.0,114.0,74.0,25.0,0.0,0.0
1553973988369753743,121.0,126.0,116.0,29.0,0.0,0.0
1553973988422528370,110.0,119.0,96.0,17.0,0.0,0.0
1553973988471741402,101.0,123.0,77.0,13.0,0.0,0.0
1553973988525280752,115.0,122.0,157.0,9.0,0.0,0.0
1553973988578448066,128.0,137.0,91.0,14.0,0.0,0.0
1553973988627342219,116.0,122.0,94.0,13.0,0.0,0.0
1553973988680494372,110.0,123.0,89.0,4.0,0.0,0.0
1553973988729793247,120.0,126.0,54.0,16.0,0.0,0.0
1553973988782960702,115.0,122.0,65.0,12.0,0.0,0.0
1553973988832346337,132.0,143.0,66.0,4.0,0.0,0.0
1553973988885380472,111.0,120.0,46.0,5.0,0.0,0.0
1553973988935005081,110.0,130.0,63.0,6.0,0.0,0.0
1553973988987799008,109.0,117.0,64.0,4.0,0.0,0.0
1553973989037085420,102.0,116.0,47.0,0.0,0.0,0.0
1553973989090216972,109.0,119.0,46.0,0.0,0.0,0.0
1553973989143426661,113.0,120.0,66.0,0.0,0.0,0.0
1553973989192644753,106.0,125.0,57.0,0.0,0.0,0.0
1553973989245813553,114.0,118.0,55.0,0.0,0.0,0.0
1553973989295063334,106.0,125.0,40.0,3.0,0.0,0.0
1553973989348258934,99.0,109.0,38.0,4.0,0.0,0.0
1553973989397493939,91.0,108.0,51.0,4.0,0.0,0.0
1553973989450754885,98.0,109.0,53.0,6.0,0.0,0.0
1553973989499877621,100.0,108.0,41.0,3.0,0.0,0.0
1553973989553076868,105.0,123.0,45.0,0.0,0.0,0.0
1553973989606263359,121.0,121.0,46.0,0.0,0.0,0.0
1553973989655521432,108.0,127.0,34.0,0.0,0.0,0.0
1553973989708673599,107.0,114.0,48.0,0.0,0.0,0.0
1553973989757928708,115.0,122.0,65.0,9.0,0.0,0.0
1553973989811106725,103.0,116.0,38.0,9.0,0.0,0.0
1553973989860375242,109.0,117.0,55.0,1.0,0.0,0.0
1553973989913521617,111.0,130.0,62.0,18.0,0.0,0.0
1553973989962791469,143.0,136.0,42.0,24.0,0.0,0.0
1553973990015926678,151.0,159.0,74.0,5.0,0.0,0.0
1553973990069095265,188.0,173.0,66.0,5.0,0.0,0.0
1553973990118369748,165.0,167.0,64.0,3.0,0.0,0.0
1553973990171533865,138.0,150.0,60.0,0.0,0.0,0.0
1553973990220783786,141.0,146.0,63.0,0.0,0.0,0.0
1553973990273975966,141.0,155.0,52.0,8.0,0.0,0.0
1553973990323222032,135.0,139.0,48.0,0.0,0.0,0.0
1553973990376393260,133.0,148.0,35.0,0.0,0.0,0.0
1553973990425607779,147.0,146.0,40.0,11.0,0.0,0.0
1553973990478943355,137.0,144.0,43.0,7.0,0.0,0.0
1553973990528082256,133.0,142.0,62.0,22.0,0.0,0.0
1553973990581204468,153.0,150.0,75.0,27.0,0.0,0.0
1553973990634385433,138.0,154.0,89.0,49.0,0.0,0.0
1553973990683670704,142.0,144.0,97.0,20.0,0.0,0.0
1553973990736818814,128.0,143.0,80.0,5.0,0.0,0.0
1553973990790354030,143.0,143.0,68.0,6.0,0.0,0.0
1553973990839464874,127.0,133.0,40.0,6.0,0.0,0.0
1553973990892451608,115.0,133.0,45.0,0.0,0.0,0.0
1553973990941667508,110.0,120.0,42.0,0.0,0.0,0.0
1553973990994875865,121.0,137.0,45.0,0.0,0.0,0.0
1553973991044164782,111.0,119.0,51.0,0.0,0.0,0.0
1553973991097351116,105.0,123.0,30.0,0.0,0.0,0.0
1553973991146608542,96.0,109.0,22.0,0.0,0.0,0.0
1553973991199803110,91.0,105.0,23.0,0.0,0.0,0.0
1553973991249044063,111.0,125.0,54.0,0.0,0.0,0.0
1553973991302266216,121.0,123.0,71.0,3.0,0.0,0.0
1553973991355384526,117.0,134.0,63.0,14.0,0.0,0.0
1553973991404629902,117.0,124.0,102.0,24.0,0.0,0.0
1553973991457810122,126.0,135.0,62.0,18.0,0.0,0.0
1553973991507094979,117.0,124.0,69.0,12.0,0.0,0.0
1553973991560309073,110.0,119.0,57.0,0.0,0.0,0.0
1553973991609789387,99.0,119.0,27.0,0.0,0.0,0.0
1553973991662628028,104.0,112.0,17.0,0.0,0.0,0.0
1553973991711841030,93.0,118.0,14.0,0.0,0.0,0.0
1553973991765014649,94.0,104.0,13.0,0.0,0.0,0.0
1553973991818190809,94.0,112.0,12.0,0.0,0.0,0.0
1553973991867430086,90.0,103.0,12.0,0.0,0.0,0.0
1553973991920617933,94.0,104.0,11.0,0.0,0.0,0.0
1553973991969976342,90.0,110.0,11.0,0.0,0.0,0.0
